[
    {
        "id": 1767,
        "name": "Bardo Brewpub",
        "brewery_type": "micro",
        "street": "25 Potomac Ave SE",
        "city": "Washington",
        "state": "District of Columbia",
        "postal_code": "20003-3670",
        "country": "United States",
        "longitude": "-77.0065830204082",
        "latitude": "38.8716537346939",
        "phone": "7622337070",
        "website_url": "http://www.bardo.beer",
        "updated_at": "2018-08-24T00:26:13.767Z",
        "tag_list": []
    },
    {
        "id": 1763,
        "name": "3 Stars Brewing Co",
        "brewery_type": "micro",
        "street": "6400 Chillum Pl NW Ste B",
        "city": "Washington",
        "state": "District of Columbia",
        "postal_code": "20012-2111",
        "country": "United States",
        "longitude": null,
        "latitude": null,
        "phone": "2026700333",
        "website_url": "http://www.3starsbrewing.com",
        "updated_at": "2018-08-11T21:36:49.110Z",
        "tag_list": []
    },
    {
        "id": 1769,
        "name": "Brewery in Planning - Washington",
        "brewery_type": "planning",
        "street": "",
        "city": "Washington",
        "state": "District of Columbia",
        "postal_code": "20009-2408",
        "country": "United States",
        "longitude": null,
        "latitude": null,
        "phone": "",
        "website_url": "",
        "updated_at": "2018-08-11T21:36:49.281Z",
        "tag_list": []
    },
    {
        "id": 1771,
        "name": "City-State Brewing Company",
        "brewery_type": "planning",
        "street": "",
        "city": "Washington",
        "state": "District of Columbia",
        "postal_code": "20017-2518",
        "country": "United States",
        "longitude": null,
        "latitude": null,
        "phone": "2025310481",
        "website_url": "http://citystatebrewing.com",
        "updated_at": "2018-08-11T21:36:49.338Z",
        "tag_list": []
    },
    {
        "id": 1772,
        "name": "DC Brau Brewing Company",
        "brewery_type": "regional",
        "street": "3178 Bladensburg Rd NE Ste B",
        "city": "Washington",
        "state": "District of Columbia",
        "postal_code": "20018-2214",
        "country": "United States",
        "longitude": null,
        "latitude": null,
        "phone": "2026218890",
        "website_url": "http://www.dcbrau.com",
        "updated_at": "2018-08-11T21:36:49.382Z",
        "tag_list": []
    },
    {
        "id": 1779,
        "name": "Red Bear Brewing Co",
        "brewery_type": "planning",
        "street": "",
        "city": "Washington",
        "state": "District of Columbia",
        "postal_code": "20002-3406",
        "country": "United States",
        "longitude": null,
        "latitude": null,
        "phone": "2062997485",
        "website_url": "http://www.redbear.beer",
        "updated_at": "2018-08-11T21:36:49.556Z",
        "tag_list": []
    },
    {
        "id": 1764,
        "name": "AdMerk Corp. Inc.",
        "brewery_type": "contract",
        "street": "20 F St NW",
        "city": "Washington",
        "state": "District of Columbia",
        "postal_code": "20001-6700",
        "country": "United States",
        "longitude": "-77.0094205",
        "latitude": "38.89742205",
        "phone": "6172028069",
        "website_url": "http://www.paugustin.com",
        "updated_at": "2018-08-24T00:26:11.878Z",
        "tag_list": []
    },
    {
        "id": 1768,
        "name": "Bluejacket",
        "brewery_type": "brewpub",
        "street": "300 Tingey St SE",
        "city": "Washington",
        "state": "District of Columbia",
        "postal_code": "20003-4625",
        "country": "United States",
        "longitude": "-77.0006981",
        "latitude": "38.8750965",
        "phone": "",
        "website_url": "http://www.bluejacketdc.com",
        "updated_at": "2018-08-24T00:26:14.349Z",
        "tag_list": []
    },
    {
        "id": 1773,
        "name": "District ChopHouse and Brewery",
        "brewery_type": "brewpub",
        "street": "509 7th St NW",
        "city": "Washington",
        "state": "District of Columbia",
        "postal_code": "20004-1600",
        "country": "United States",
        "longitude": "-77.0216694",
        "latitude": "38.8965132",
        "phone": "2023473434",
        "website_url": "http://www.districtchophouse.com",
        "updated_at": "2018-08-24T00:26:16.106Z",
        "tag_list": []
    },
    {
        "id": 1775,
        "name": "Gordon Biersch Brewery Restaurant - Washington",
        "brewery_type": "brewpub",
        "street": "900 F St NW",
        "city": "Washington",
        "state": "District of Columbia",
        "postal_code": "20004-1404",
        "country": "United States",
        "longitude": "-77.0243479",
        "latitude": "38.8971375",
        "phone": "2027835454",
        "website_url": "http://www.gordonbiersch.com/locations/washington-dc?action=view",
        "updated_at": "2018-08-24T00:26:17.179Z",
        "tag_list": []
    },
    {
        "id": 1777,
        "name": "Hellbender Brewing Company",
        "brewery_type": "micro",
        "street": "5788 2nd St NE",
        "city": "Washington",
        "state": "District of Columbia",
        "postal_code": "20011-2524",
        "country": "United States",
        "longitude": "-77.0053314",
        "latitude": "38.9603005",
        "phone": "2022301030",
        "website_url": "http://www.hellbenderbeer.com",
        "updated_at": "2018-08-24T00:26:17.715Z",
        "tag_list": []
    },
    {
        "id": 1780,
        "name": "Right Proper Brewing Company",
        "brewery_type": "micro",
        "street": "920 Girard St NE",
        "city": "Washington",
        "state": "District of Columbia",
        "postal_code": "20017-3424",
        "country": "United States",
        "longitude": "-76.9930707764239",
        "latitude": "38.9267988",
        "phone": "2026072337",
        "website_url": "http://www.rightproperbrewing.com",
        "updated_at": "2018-08-24T00:26:18.318Z",
        "tag_list": []
    },
    {
        "id": 1781,
        "name": "Right Proper Brewing Company",
        "brewery_type": "brewpub",
        "street": "624 T St NW",
        "city": "Washington",
        "state": "District of Columbia",
        "postal_code": "20001-5119",
        "country": "United States",
        "longitude": "-77.0213751",
        "latitude": "38.9154119",
        "phone": "2026072337",
        "website_url": "http://www.rightproperbrewery.com",
        "updated_at": "2018-08-24T00:26:18.877Z",
        "tag_list": []
    },
    {
        "id": 1782,
        "name": "The Public Option",
        "brewery_type": "brewpub",
        "street": "1601 Rhode Island Ave NE",
        "city": "Washington",
        "state": "District of Columbia",
        "postal_code": "20018-1841",
        "country": "United States",
        "longitude": "-76.9817377",
        "latitude": "38.926148",
        "phone": "2023975129",
        "website_url": "http://www.thepublicoptiondc.com",
        "updated_at": "2018-08-24T00:26:19.535Z",
        "tag_list": []
    },
    {
        "id": 1766,
        "name": "Atlas Brew Works",
        "brewery_type": "micro",
        "street": "2052 W Virginia Ave NE Ste 102",
        "city": "Washington",
        "state": "District of Columbia",
        "postal_code": "20002-1832",
        "country": "United States",
        "longitude": null,
        "latitude": null,
        "phone": "2028320420",
        "website_url": "http://www.atlasbrewworks.com",
        "updated_at": "2018-08-11T21:36:49.182Z",
        "tag_list": []
    },
    {
        "id": 1770,
        "name": "Capitol City Brewing Co",
        "brewery_type": "contract",
        "street": "2 Massachusetts Ave NE",
        "city": "Washington",
        "state": "District of Columbia",
        "postal_code": "20002-4945",
        "country": "United States",
        "longitude": "-77.0082686",
        "latitude": "38.8979293",
        "phone": "2028422337",
        "website_url": "http://www.capcitybrew.com",
        "updated_at": "2018-08-24T00:26:14.936Z",
        "tag_list": []
    },
    {
        "id": 1774,
        "name": "Gordon Biersch Brewery Restaurant - Navy  Yard",
        "brewery_type": "brewpub",
        "street": "100 M St SE",
        "city": "Washington",
        "state": "District of Columbia",
        "postal_code": "20003-3519",
        "country": "United States",
        "longitude": "-77.0052971",
        "latitude": "38.8766834",
        "phone": "2024842739",
        "website_url": "http://www.gordonbiersch.com/locations/navy-yard?action=view",
        "updated_at": "2018-08-24T00:26:16.619Z",
        "tag_list": []
    }
]